[
  {
    "name": "莲花山公园",
    "address": "红荔路6030号",
    "location": "114.058673,22.553594"
  },
  {
    "name": "深圳博物馆",
    "address": "福中路市民中心A区(市民中心地铁站B口步行240米)",
    "location": "114.061704,22.543674"
  },
  {
    "name": "市民广场",
    "address": "福中三路",
    "location": "114.059640,22.541519"
  },
  {
    "name": "深圳中心公园",
    "address": "振华西路1号",
    "location": "114.077619,22.550295"
  },
  {
    "name": "莲花山公园-邓小平雕像",
    "address": "红荔路6030号莲花山公园内",
    "location": "114.059470,22.553197"
  },
  {
    "name": "笔架山公园",
    "address": "梅岗路",
    "location": "114.080876,22.562893"
  },
  {
    "name": "笔架山体育公园",
    "address": "笔架山公园内福田河以西",
    "location": "114.074651,22.558467"
  },
  {
    "name": "香蜜公园",
    "address": "香蜜湖街道农园路30号",
    "location": "114.022072,22.546652"
  },
  {
    "name": "节日大道节日广场",
    "address": "福华路346号(岗厦地铁站B口步行240米)",
    "location": "114.065728,22.535481"
  },
  {
    "name": "市民广场南广场",
    "address": "福华一路3号(市民中心地铁站F口步行420米)",
    "location": "114.060440,22.538208"
  }
]